Regione,Provincia,Sigla_Provincia,Codice Scuola,name,Indirizzo,cap,Comune,Tipo Istituzione,Tipologia scuola,lat,lon,note,website
Sicilia,Palermo,PA,PAIC8AS004,Istituto Comprensivo Statale Vittorio Emanuele III,Via Cesare Terranova 93,90131,Palermo,ISTITUTO COMPRENSIVO,SCUOLA STATALE,38.09771,13.3231,Dall'11 Maggio 2023 la scuola ha cambiato denominazione ed è ora dedicata alla astrofisica Margherita Hack,https://www.icmargheritahackpa.it/
Puglia,Bari,BA,BAMM29300D,Scuola Secondaria di I° Grado Vittorio Emanuele III - Dante Alighieri,P.zza Trieste e Trento 6,76123,Andria,SCUOLA PRIMO GRADO,SCUOLA STATALE,41.22972,16.29881,Nel Febbraio 2023 la scuola ha avviato l’iter per il cambio di denominazione,https://www.scuolavittorioemanueledante.edu.it/
Sicilia,Messina,ME,MEPC060006,Liceo Vittorio Emanuele III,Via Trieste 43,98066,Patti,LICEO CLASSICO,SCUOLA STATALE,38.1402,14.96949,,https://liceostatalepatti.edu.it/
Puglia,Foggia,FG,FGTD060005,Istituto Tecnico Economico Tecnologico Vittorio Emanuele III,Via Dante 12,71036,Lucera,IST TEC COMMERCIALE E PER GEOMETRI,SCUOLA STATALE,41.51347,15.334,Nel Marzo del 2018 la scuola approva l’avvio dell’iter per il cambio di denominazione,https://itclucera.it/
Sicilia,Palermo,PA,PATF030009,Istituto Tecnico Settore Tecnologico Vittorio Emanuele III,Via Duca Della Verdura 48,90143,Palermo,ISTITUTO TECNICO INDUSTRIALE,SCUOLA STATALE,38.13493,13.35467,,https://www.itive3pa.edu.it/
